stationName,streetAddress,addressLocality,postalCode,addressCountry,latitude,longitude,phone,email,county
CIRCLE K EXPRESS ROSCREA,Roscrea Bypass,Roscrea,E53 RD76,IE,52.946545,-7.797023,+35350523488,1623-Roscrea-Store@Centra.ie,Tipperary
CIRCLE K EXPRESS KILRUSH,Ennis Road,Kilrush,V15 AA66,IE,52.641820,-9.480620,+353659051067,wclkilrush@hotmail.com,Clare
CIRCLE K EXPRESS CULLAHILL,CULLAHILL,Cullohill,R32 TFR9,IE,52.817186,-7.476880,+353578737334,berginpaschal@eircom.net,Laois
CIRCLE K EXPRESS MCCARTHYS FERMOY,Dublin Road,Fermoy,P61 PF64,IE,52.145672,-8.277568,+3532531555,dmccarthy@fermoy-nissan.com,Cork
CIRCLE K EXPRESS MONASTEREVIN,Rathangan Road,Monasterevin,W34 HX82,IE,53.143122,-7.056486,+35345525184,info@mafinlay.ie,Kildare
CIRCLE K EXPRESS KILTIMAGH,Aiden Street,Kiltimagh,F12 E8N0,IE,53.853780,-8.995198,+353949381194,walshservstat@gmail.com,Mayo
CIRCLE K EXPRESS CASTLEFINN,Sandy Row,Castlefinn,F93 XD8V,IE,54.802757,-7.592160,+353749146124,castlefinn@iscourt.ie,Donegal
CIRCLE K EXPRESS FAHAN,Gort,Fahan,F93 C9NP,IE,55.077934,-7.453494,+353749360257,bradleysservicestation@eircom.net,Donegal
CIRCLE K EXPRESS CARNMORE,Carnmore,Oranmore,H91 W9KH,IE,53.303847,-8.942217,+35391755049,admin@glynnscentra.ie,Galway
CIRCLE K EXPRESS MULLINGAR OBRIEN LYNNRD,Lynn Road,Mullingar,N91 X0PR,IE,53.515429,-7.342169,+353449390182,rosemary@pobrien.ie,Westmeath
CIRCLE K EXPRESS ARDEE,Dublin Road,Ardee,A92 H2NA,IE,53.850380,-6.538794,+353416856056,bmalonefuels@gmail.com,Louth
CIRCLE K EXPRESS MARINA CORK,Monaghan Road,Cork,T12 H9CF,IE,51.896930,-8.457835,+353214965478,info@marinafillingstation.com,Cork
CIRCLE K EXPRESS INISHANNON,Main Street,Inishannon,T12 C6VA,IE,51.765596,-8.660541,+353214776889,mcronin@fcos.ie,Cork
CIRCLE K EXPRESS CASTLEBAR,New Ring Road,Castlebar,F23 R667,IE,53.854204,-9.305842,+353949025844,cathymchale@caseyretailgroup.ie,Mayo
CIRCLE K EXPRESS KILLYBEGS,Donegal Road,Killybegs,F94 XDP7,IE,54.644440,-8.432342,+353749732380,killybegs@supervalu.ie,Donegal
CIRCLE K EXPRESS BALLYBOFEY,Donegal Road,Ballybofey,F93 A6C1,IE,54.794961,-7.795010,+353749190988,sales@gallagherscars.ie,Donegal
CIRCLE K EXPRESS LOUGHANURE,Loughanure,Annagry,F94 T44T,IE,54.998406,-8.289396,+353749562650,martin11moore@yahoo.co.uk,Donegal
CIRCLE K EXPRESS CARNEW RD GOREY,Carnew Road,Gorey,Y25 W9W2,IE,52.671948,-6.317970,+353539483758,doylestephen@hotmail.com,Wexford
CIRCLE K EXPRESS DRINAGH,Blackhorse,Drinagh,Y35 PX2D,IE,52.299997,-6.458841,+353539142377,drinaghmotors2@eircom.net,Wexford
CIRCLE K EXPRESS NEWPORT MAYO,Mulranney Road,Newport,F28 F8X0,IE,53.887570,-9.545234,+3539841898,info@kellysgarage.ie,Mayo
CIRCLE K EXPRESS KILMIHIL,Ennis Road,Kilmihill,V15 AV63,IE,52.720772,-9.317487,+353659050010,info@fitzpatricksgarage.ie,Clare
CIRCLE K EXPRESS GWEEDORE,Cotteen,Derrybeg,F92 HH0V,IE,55.077434,-8.290945,+353749531215,gallaghersfoodstoregweedore@gmail.com,Donegal
CIRCLE K EXPRESS ENNIS GORT ROAD,Gort Road,Ennis,V95 YE89,IE,52.852760,-8.983232,+353656797612,accounts@shiels.ie,Clare
CIRCLE K EXPRESS CLONMEL PRIOR PARK ROAD,Prior Park,Clonmel,E91 DY07,IE,52.360463,-7.700418,+3535226160,priorparkservicestation@gmail.com,Tipperary
CIRCLE K EXPRESS LISSARDA,LissaRoada,Lissarda,P14 D328,IE,51.851936,-8.865371,+353217335429,darragholeary@olearyslissarda.ie,Cork
CIRCLE K EXPRESS DOORADOYLE,Ambassador Centre,Dooradoyle,V94 C8HT,IE,52.636740,-8.654375,+35361227472,30042@circlekeurope.com,Limerick
CIRCLE K EXPRESS KILDORRERY,Farrahy Road,Kildorrery,P67 FX67,IE,52.245626,-8.429357,+3532221585,info@centrakildorrery.com,Cork
CIRCLE K EXPRESS TEMPLEMORE,Roscrea Road,Templemore,E41 YC80,IE,52.804365,-7.831206,+35350431498,info@wallacesgarage.ie,Tipperary
CIRCLE K EXPRESS HEADFORD,N84,Headford,H91 ECK1,IE,53.468597,-9.106120,+3539336442,monaghansheadford@gmail.com,Galway
CIRCLE K EXPRESS MULLINGAR RUSTIC INDEST,Lynn Industrial Est,Mullingar,N91 RFC8,IE,53.520294,-7.344937,+353449343122,mullingar@daybreakrustic.ie,Westmeath
CIRCLE K EXPRESS CRAUGHWELL,Doonard,Craughwell,H91 EH2H,IE,53.227109,-8.731302,+35391846359,accounts@oystermotors.ie,Galway
CIRCLE K EXPRESS NEW ROSS,Rossmount,New Ross,Y34 AW63,IE,52.405497,-6.935425,+35351440906,Lavinia@knockavillastation.ie,Wexford
CIRCLE K EXPRESS CK ONSHANNON  DUBLIN RD,Dublin Road,Carrick-on Shannon,N41 Y4D8,IE,53.943885,-8.070947,+353719620059,2026-Carrick-store@centra.ie,Leitrim
CIRCLE K EXPRESS LETTERKENNY PORT ROAD,Port Road,Letterkenny,F92 VWV9,IE,54.952276,-7.724962,+353749124097,accounts@tobins.ie,Donegal
CIRCLE K EXPRESS CARRICKMACROSS,Dundalk Road,Carrickmacross,A81 KX03,IE,53.969037,-6.700901,+353429661527,cassidyplanthire@hotmail.com,Monaghan
CIRCLE K EXPRESS DUNDALK,Dublin Road,Dundalk,A91 YN3F,IE,53.988305,-6.398265,+353429339485,roioffice@niallclarkeoils.com,Louth
CIRCLE K EXPRESS BALLYMASCANLON,"Aghaboys, Ballymascanlon",Dundalk,A91 HN0C,IE,54.034400,-6.374079,+353429371331,roioffice@niallclarkeoils.com,Louth
CIRCLE K EXPRESS BORRISOLEIGH CAPPANILLY,Cappanilly,Borrisoleigh,E41 X4E8,IE,52.754402,-7.962455,+35350451068,info@cappanillyservices.ie,Tipperary
CIRCLE K EXPRESS FOREST SERVICE STATION,Castlemaine Rd,Castlemaine,V93 VF50,IE,52.164346,-9.700608,+353669767376,forestservicestn@gmail.com,Kerry
CIRCLE K EXPRESS DUNGARVAN,Youghal Road,Dungarvan,X35 XT71,IE,52.083822,-7.634146,+3535875767,info@dungarvandaybreak.ie,Waterford
CIRCLE K EXPRESS BALLA,Main Street,Balla,F23 HW31,IE,53.805376,-9.130932,+353949365036,dannyroche@eircom.net,Mayo
CIRCLE K EXPRESS EDENDERRY,St. Mary's Road,Edenderry,R45 PY95,IE,53.335936,-7.062100,+353469731308,sweeneyben2016@gmail.com,Meath
CIRCLE K EXPRESS DONEGAL TOWN,Doonan,Donegal Town,F94 RKP5,IE,54.656379,-8.118280,+353749721340,conor_gillespie@hotmail.com,Donegal
CIRCLE K EXPRESS DUNMANWAY,Chapel St,Dunmanaway,P47 K683,IE,51.723974,-9.107553,+353238855052,galvinsservicestation@eircom.net,Cork
CIRCLE K EXPRESS RIVERSTICK,RIVERSIDE GROVE,Riverstick,P43 W680,IE,51.771884,-8.495705,+35314771752,coleary@fcos.ie,Cork
CIRCLE K EXPRESS CASTLEMAINE,Brackhill,Castlemaine,V93 VF50,IE,52.164576,-9.701455,+353669767376,croninsservicestn@gmail.com,Kerry
CIRCLE K EXPRESS KILBEGGAN,Tullamore Road,Kilbeggan,N91 FNV0,IE,53.363131,-7.496679,+353579333908,ronan@m6servicecentre.ie,Westmeath
CIRCLE K EXPRESS PETTIGO,Ardnaglass,Pettigo,F94 V9PY,IE,54.552498,-7.833842,+353719861909,pettigofuelservicesltd@gmail.com,Donegal
"CIRCLE K EXPRESS MELL, DROGHEDA",Mell,Drogheda,A92 XW3K,IE,53.718147,-6.364331,+353419801897,30073@circlekeurope.com,Louth
CIRCLE K EXPRESS THURLES,Abbey Road,Thurles,E41 F9N1,IE,52.675660,-7.827290,+35350423268,laasc@eircom.net,Tipperary
CIRCLE K EXPRESS CREIGHANROE,Creighanroe,Castleblayney,A75 PK66,IE,54.184779,-6.735312,+3534837538605,Jackie@mvt.co.uk,Monaghan
CIRCLE K EXPRESS EMYVALE MOYBRIDGE,Moybridge,Emyvale,H18 DW95,IE,54.400106,-6.977357,+3534786233,office@mcanenlyfuels.com,Monaghan
CIRCLE K EXPRESS CLONMEL WATERFORD  ROAD,Waterford Road,Clonmel,E91 H5K6,IE,52.359634,-7.660067,+353526182744,clonmeloilss@gmail.com,Tipperary
CIRCLE K EXPRESS CK ONSHANNON LEITRIM RD,Leitrim Road,Carrick-on-shannon,N41 A5D5,IE,53.948513,-8.091797,,AGarvey2@corriboil.com,Leitrim
CIRCLE K EXPRESS LOUISBURGH,"Moneen, Westport Rd",Louisberg,F28 AD65,IE,53.765863,-9.791929,+3539823696,AGarvey2@corriboil.com,Mayo
CIRCLE K EXPRESS BALLINROBE,Neale Road,Ballinrobe,F31 Y009,IE,53.616515,-9.222965,+353949520942,AGarvey2@corriboil.com,Mayo
CIRCLE K EXPRESS CASTLEREA,Patrick Street,Castlerea,F45 HP26,IE,53.762117,-8.486273,,AGarvey2@corriboil.com,Roscommon
CIRCLE K EXPRESS GORT,Crowe St,Crowe Street,H91 FR8A,IE,53.070425,-8.821765,+35391631818,AGarvey2@corriboil.com,Galway
CIRCLE K EXPRESS CASTLEBAR RING ROAD,New Ring Road,Castlebar,F23 Y673,IE,53.848293,-9.301645,+3539449024975,AGarvey2@corriboil.com,Mayo
CIRCLE K EXPRESS KILBRIDE,Kilbride,Dublin Road,F12 C6E8,IE,53.942340,-8.937798,+353949253754,AGarvey2@corriboil.com,Mayo
"CIRCLE K EXPRESS BANAGHER ROAD, BIRR",Bannagher Road,Birr,R42 X585,IE,53.102327,-7.915125,+353579122840,AGarvey2@corriboil.com,Offaly
CIRCLE K EXPRESS BRACKERNAGH,Brackernagh,Ballinasloe,H53 V4H0,IE,53.324829,-8.237213,+353909646054,AGarvey2@corriboil.com,Galway
CIRCLE K EXPRESS PORTLAOISE MTMELLICKRD,Mountmellick Road,Portlaoise,R32 T2YA,IE,53.050958,-7.320686,+353578670800,AGarvey2@corriboil.com,Laois
CIRCLE K EXPRESS BLANCHARDSTOWN,Main Street,Dublin 15,D15 AX2N,IE,53.390732,-6.381603,+3538216622,accounts@tractamotorsblanchardstown.com,Dublin
CIRCLE K EXPRESS TUAM,Abbeytrinity Road,Tuam,H54 YK54,IE,53.513944,-8.856985,+3539326772,AGarvey2@corriboil.com,Galway
CIRCLE K EXPRESS ROSCOMMON RACECOURSE RD,Racecourse Road,Roscommon,F42 YX00,IE,53.641564,-8.211157,+353906627569,AGarvey2@corriboil.com,Roscommon
CIRCLE K EXPRESS LOUGHREA CAMP HILL,Dublin Road,Camphill,H62 NP89,IE,53.201100,-8.557070,+35391841003,AGarvey2@corriboil.com,Galway
CIRCLE K EXPRESS ATHLONE ROSCOMMON ROAD,Roscommon Road,Athlone,N37 X0V6,IE,53.426779,-7.960140,+353906492045,info@mulligansathlone.ie,Westmeath
CIRCLE K EXPRESS BURT,Moness,Burt,F93 NY7P,IE,55.032063,-7.454028,+353749368122,pearse@callaghansburt.ie,Donegal
CIRCLE K EXPRESS KNOCKLONG,Ford Centre,Knocklong,V35 D293,IE,52.437688,-8.411732,+3536253103,ivana@dan-dooley.ie,Limerick
CIRCLE K EXPRESS CARNDONAGH,Millbrae,Carndonagh,F93 TDF4,IE,55.248672,-7.263945,+353749376471,accounts@kellysservicestation.net,Donegal
CIRCLE K EXPRESS CLONARD,Clonard Rd,Clonard Little,Y35 XND4,IE,52.330195,-6.494048,+353539122883,info@dirrhilldev.com,Wexford
CIRCLE K EXPRESS CLIFDEN,Westport Road,Clifden,H71 E337,IE,53.489372,-10.020615,+3539521191,louise.martin@sweeneyoil.ie,Galway
CIRCLE K EXPRESS ENNISCORTHY,Hempfield,Enniscorthy,Y21 DW01,IE,52.508362,-6.558417,,topaz@donohoeagri.ie,Wexford
CIRCLE K EXPRESS BALLINA CIRCULAR ROAD,Circular Road,Breaffy Road,F26 E9X0,IE,54.117055,-9.155255,+3539660054,cathymchale@caseyretailgroup.ie,Mayo
CIRCLE K EXPRESS BLACKROCK,Castle Road,Blackrock,T12 CXD7,IE,51.896786,-8.420792,+353214358576,30100@circlekeurope.com,Cork
CIRCLE K EXPRESS FOYNES,Corgrigg,Foynes,V94 W62W,IE,52.607697,-9.101782,+353 6965534,centrafoynes@centra.ie,Limerick
CIRCLE K EXPRESS LIMERICK,Dock Rd,Limerick,V94 P2TH,IE,52.656075,-8.646819,+353 61314040,cathymchale@caseyretailgroup.ie,Limerick
CIRCLE K EXPRESS MALLOW,Limerick Road,Mallow,P51 NX3F,IE,52.146570,-8.656280,+3532221766,mcostcuttermallow@supermacs.ie,Cork
CIRCLE K EXPRESS MOVILLE,Moville,Carndonagh,F93 DW6N,IE,55.188374,-7.045461,+353749382828,dohertycarndonagh@supervalu.ie,Donegal
CIRCLE K EXPRESS HENNESYS GRAIGUECULLEN,Portlaoise Road,Graiguecullen,R93 Y3Y7,IE,52.840361,-6.946371,+353599143837,brianhennessycw@yahoo.com,Carlow
CIRCLE K EXPRESS KENMARE,Killarney Road,Kenmare,V93 WYK5,IE,51.884160,-9.588340,+353646641316,Kenmarecentra@gmail.com,Kerry
CIRCLE K EXPRESS CASEYS AUTOCENTRE,Athone Road,Roscommon,F42 RY88,IE,53.628990,-8.186484,+353906625468,john@caseysroscommon.ie,Roscommon
CIRCLE K EXPRESS LISSYCASEY,Lissycasey,Ennis,V95 A46D,IE,52.740310,-9.170713,+353656834151,info@taltystores.ie,Clare
CIRCLE K EXPRESS TULLAGHAN,Bundoran Road,Tullaghan,F91 A03V,IE,54.468114,-8.328901,,rodgersbundoran@yahoo.ie,Sligo
CIRCLE K EXPRESS LITTLEISLAND,Ballytrasna,Little Island,T45 FK75,IE,51.903769,-8.351873,+353214353256,centralittleisl@gmail.com,Cork
CIRCLE K EXPRESS LISTOWEL CHURCH STREET,Upper Church Street,Listowel,V31 DW99,IE,52.448141,-9.478240,+3536821040,flavia@dsb.ie,Kerry
CIRCLE K EXPRESS PATRICKSWELL,Main Street,Patrickswell,V94 X4KA,IE,52.596804,-8.710371,+35361355218,accounts@mcdermottgroup.ie,Limerick
CIRCLE K EXPRESS LETTERKENNY KILMACRENAN,Kilmacrennan Road,Letterkenny,F92 AKW3,IE,54.977051,-7.725498,+353749122026,dessiecosgrove@gmail.com,Donegal
CIRCLE K EXPRESS KYLEMORE,Kylemore,Connemara,H91 N5Y6,IE,53.563416,-9.836345,+3539541147,pddywalsh@live.ie,Galway
CIRCLE K EXPRESS BLARNEY,O'Leary's Filling Station,Blarney,T23 HY50,IE,51.925371,-8.609280,+353214385375,accountstower@centra.ie,Cork
CIRCLE K EXPRESS EMO PORTLAOISE,Emo,Portlaoise,R32 A256,IE,53.092352,-7.179380,+353578626686,accounts@gandoninn.com,Laois
CIRCLE K EXPRESS NALLY BALLYMAHON,Main Street,Ballymahon,N39 R8X9,IE,53.566951,-7.769199,+353906432021,accounts@nallybros.ie,Longford
CIRCLE K EXPRESS FALCARRAGH,Falcarragh Service Station,Falcarragh,F92 R2VN,IE,55.137240,-8.098946,+353749135755,Louisemaplegroup@gmail.com,Donegal
CIRCLE K EXPRESS TRIM DUBLIN ROAD,Dublin Road,Trim,C15 V4KW,IE,53.553097,-6.761237,+353469438364,barrygillenfuel@gmail.com,Meath
CIRCLE K EXPRESS KINVARA,Kinvara,Galway,H91 Y8DD,IE,53.139044,-8.941202,+35391638477,kinvaracostcutter@gmail.com,Galway
CIRCLE K EXPRESS DROMORE WEST,Main Street,Dromore West,F26 P2Y0,IE,54.249353,-8.873922,+3539647030,accounts@feeneysdromorewest.ie,Mayo
CIRCLE K EXPRESS GORTAHORK,Gortahork,Letterkenny,F92 DHD9,IE,55.120500,-8.133505,+353749135194,mcclaffertygortahork@gmail.com,Donegal
CIRCLE K EXPRESS BALLYHAUNIS,Ballinlough Road,Ballyhaunis,F35 C854,IE,53.761330,-8.757703,,AGarvey2@corriboil.com,Mayo
CIRCLE K EXPRESS GREYSTONES,Church Road,Greystones,A63 Y825,IE,53.149609,-6.071084,+35312557769,edward.lonergan@musgrave.ie,Wicklow
CIRCLE K EXPRESS KILLORGLIN,Iveragh Road,Killorglin,V93 H3VP,IE,52.106272,-9.793376,+353669762166,Killorglinmargaretgaynor@supervalu.ie,Kerry
CIRCLE K EXPRESS OBAMA PLAZA MONEYGALL,"Junction 23, M7",Moneygall,E53 F342,IE,52.909547,-7.950872,+35350545808,SparMoneygall@supermacs.ie,Tipperary
CIRCLE K EXPRESS STRANDHILL,Strandhill road,Lareasa,F91 C79E,IE,54.270840,-8.582462,+353719168638,keanestrandhill@centra.ie,Sligo
CIRCLE K EXPRESS MUFF,Main Street,Muff,F93 P2FV,IE,55.069466,-7.268442,+353749384004,kdoherty075@gmail.com,Donegal
CIRCLE K EXPRESS LARKIN BALLINA KILLALOE,Forthenry,Killaloe,V94 TR9X,IE,52.791425,-8.433636,+35361374985,larkinsballina@gmail.com,Limerick
CIRCLE K EXPRESS BIRR,Tullamore Road,Birr,R42 ND74,IE,53.102924,-7.906618,+353579120066,mlough06@gmail.com,Offaly
CIRCLE K EXPRESS COROFIN,COROFIN,Corofin,H54 YF77,IE,53.437738,-8.861668,+3539341439,rafteryfinance@centra.ie,Galway
CIRCLE K EXPRESS CASTLETOWNBERE,Derrymihan,Castletownbere,P75 AX79,IE,51.653360,-9.882607,+3532770820,chrisfdowney@gmail.com,Cork
CIRCLE K EXPRESS SCARTAGLIN,SCARTAGLEN,Scartaglen,V93 XD61,IE,52.179100,-9.406290,,michaeldaly.scartaglin@gmail.com,Kerry
CIRCLE K EXPRESS BALLINGARRY,Main Street,Ballingarry,V94 W4AY,IE,52.471811,-8.860620,+3536968127,ogradysfmkt@gmail.com,Limerick
CIRCLE K EXPRESS NEWBRIDGE,Moorefield Road,Newbridge,W12 YF59,IE,53.176052,-6.803319,+35345450476,30145@circlekeurope.com,Kildare
CIRCLE K EXPRESS DOLANS BALLINASLOE,"Kilgorrive, Creagh",Ballinasloe,H53 Y5D0,IE,53.328888,-8.184890,+353909642178,dolanscentra1@gmail.com,Galway
CIRCLE K EXPRESS TIPPERARY TOWN,"Bohercrow, Limerick rd",Tipperary Town,E34 HY24,IE,52.479720,-8.175528,+35391771400,SparTippTown@supermacs.ie,Tipperary
CIRCLE K EXPRESS KNOCKANORK,Dublin Road,Knockanork,H12 V6H9,IE,53.964833,-7.229548,+353494330120,r_msvc@yahoo.com,Cavan
CIRCLE K EXPRESS FINGERBOARD TULLAMORE,Charleville Road,Tullamore,R35 W6F8,IE,53.256239,-7.513588,+353579321286,oliveflynn@gmail.com,Offaly
CIRCLE K EXPRESS CLANE,"Dublin Road,",Clane,W91 YN28,IE,53.293374,-6.686523,+35345861838,shaylantrading@eircom.net,Kildare
CIRCLE K EXPRESS BRADYS CASTLEKNOCK,Navan Rd,Dublin 15,D15 R26R,IE,53.378256,-6.349680,+35318217278,bradysck@gmail.com,Dublin
CIRCLE K EXPRESS DUNLEER,Dundalk Road,Dunleer,A92 WP22,IE,53.835285,-6.393948,+353416851243,bernie@darbys.ie,Louth
CIRCLE K EXPRESS TULLAMORE CLARA RD,Clara Road,Tullamore,R35 X0Y1,IE,53.278830,-7.498830,+353579321619,dolansltd@gmail.com,Offaly
CIRCLE K EXPRESS DUNDALK DUBLIN ROAD,Dublin Road,Dundalk,A91 Y7WH,IE,53.969258,-6.389014,+353429321597,flanagansdlk@gmail.com,Louth
CIRCLE K EXPRESS CAVAN VIRGINIA,Lisduff,Virginia,A82 A0E2,IE,53.798911,-7.032177,+353498547405,americanstoreskells@gmail.com,Meath
CIRCLE K EXPRESS OSBORNE GOREY ARKLOW RD,Arklow Road,Gorey,Y25 T6K0,IE,52.679110,-6.287429,+353539481665,daybreakgorey@gmail.com,Wexford
CIRCLE K EXPRESS KILKENNY CITY,Callan Road,Kilkenny,R95 RV0C,IE,52.643319,-7.262237,+353567790900,broslane@eircom.net,Kilkenny
CIRCLE K EXPRESS NENAGH,Limerick Road,Nenagh,E45 FC44,IE,52.861619,-8.212318,+3536732416,clearysgarage@eircom.net,Tipperary
CIRCLE K EXPRESS NEWPORT TIPPERARY,Church Road,Newport,V94 X5NK,IE,52.712235,-8.409758,+35361378198,hsweeney40@gmail.com,Limerick
CIRCLE K EXPRESS SKIBEREEN,Market Street,Skibereen,P81 YV61,IE,51.547208,-9.263864,+3532821366,trevorhegarty@live.ie,Cork
CIRCLE K EXPRESS CAHALANE CORK RD BANDON,Cork Road,Bandon,P72 RR83,IE,51.752540,-8.716825,+353238820859,,Cork
CIRCLE K EXPRESS MONKSLAND,"Old Galway Road, Monksland,",Athlone,N37 P5Y9,IE,53.421443,-7.973837,+353906444975,monkslandspar@gmail.com,Westmeath
CIRCLE K EXPRESS ROCHESTOWN,Rochestown Road,Rochestown,T12 V4FP,IE,51.877129,-8.395923,+353214363607,tmurphy@rochestownautocentre.ie,Cork
CIRCLE K EXPRESS RATHMORE,Shinnagh,Ratoath,P51 HY8K,IE,52.084375,-9.220893,+353647758016,kok@okrl.ie,Cork
CIRCLE K EXPRESS TUAM ROAD,Tuam Road,Ballybane,H91 ENY3,IE,53.292153,-9.018944,+35391773717,shop@monaghans.ie,Galway
CIRCLE K EXPRESS TRALEE,"Clash Cross, Rathass",Tralee,V92 HX5K,IE,52.268977,-9.687212,+353667120744,oconnorsstralee@gmail.com,Kerry
CIRCLE K EXPRESS USHERS QUAY,15-21 Ushers Quay,Dublin 8,D08 X2P8,IE,53.345454,-6.277793,+35316790878,maryodriscoll.qec@gmail.com,Dublin
CIRCLE K EXPRESS BALLYBRIT,Ballybrit Service Station,Ballybrit,H91 TY4X,IE,53.290670,-9.006834,+35391761442,ballybrit@monaghans.ie,Galway
CIRCLE K EXPRESS CAHERCONLISH,Main Street,Caherconlish,V94 NT9D,IE,52.593530,-8.472269,+35361351977,30191@circlekeurope.com,Limerick
CIRCLE K EXPRESS LIMERICK ONEILS DOCK RD,Dock Road,Limerick,V94 DH52,IE,52.660637,-8.635099,+35361312594,John@johnoneillretailing.ie,Limerick
CIRCLE K EXPRESS ARDFERT ATLANTIC OILS,North Commons,Ard Fert,V92 A2XA,IE,52.323771,-9.777809,,johnenright@atlanticoils.com,Kerry
CIRCLE K EXPRESS WATERVILLE,Dalys,Waterville,V23 H902,IE,51.849837,-10.171474,,dalygeraldine@eircom.net,Kerry
CIRCLE K EXPRESS TULLOW,Bunclody Road,Tullow,R93 C4E0,IE,52.798183,-6.743511,+353599151109,joe@joeotooleandsons.com,Carlow
CIRCLE K EXPRESS KELLS BECTIVE STREET,Bective Street,Kells,A82 E8R2,IE,53.722915,-6.880947,+353469280404,accounts@mckeonslovefresh.ie,Meath
CIRCLE K EXPRESS GALWAY SEAMUS QUIRKE RD,Seamus Quirke Road,Galway City,H91 K76D,IE,53.277498,-9.072153,+35391519816,30200@circlekeurope.com,Galway
CIRCLE K EXPRESS SHERCOCK,Carrickmacross Road,Shercock,A81 Y827,IE,53.997835,-6.891507,+353429691664,mark.mcnally6@mail.dcu.ie,Monaghan
CIRCLE K EXPRESS CAPPAMORE,Moore Street,Cappamore,V94 P3VR,IE,52.614609,-8.336926,+35361381491,30202@circlekeurope.com,Limerick
CIRCLE K EXPRESS CROSSTOWN SERVICE SS,R741,Crosstown,Y35 H0KW,IE,52.359988,-6.452813,+353539124946,crosstownservicestation@gmail.com,Wexford
CIRCLE K EXPRESS LIFFORD CASTLEFINN RD,Castlefinn Road,Lifford,F93 HN2W,IE,54.828982,-7.484897,+353749142478,austin1960@eircom.net,Donegal
CIRCLE K EXPRESS GOWRAN,High Street,Gowran,R95 D26E,IE,52.630720,-7.061857,+353567726194,PHenno1@hotmail.com,Kilkenny
CIRCLE K EXPRESS WESTPORT,Castlebar Road,Westport,F28 FP76,IE,53.803759,-9.495199,+3539827559,AGarvey2@corriboil.com,Mayo
CIRCLE K EXPRESS CARRIGART,MILFORD ROAD,Carrigart,F92 KX29,IE,55.176172,-7.786134,+353749155744,Louisemaplegroup@gmail.com,Donegal
CIRCLE K EXPRESS BUNCRANA,RAILWAY ROAD,Buncrana,F93 DFH1,IE,55.128096,-7.457023,+353749362299,julieh@jgc.ie,Donegal
CIRCLE K EXPRESS CASTLEBAR MONEEN ROUND,Moneen N5,Castlebar,F23 T189,IE,53.856648,-9.285030,+353949021359,mulroysbarcastle@gmail.com,Mayo
CIRCLE K EXPRESS CASTLEBAR BREAFFY ROAD,Breaffy Road,Castlebar,F23 X562,IE,53.850071,-9.280347,+353949021888,mulroysbarcastle@gmail.com,Mayo
CIRCLE K EXPRESS O'MOORE TULLAMORE,O Moore Street,Tullamore,R35 YN97,IE,53.270643,-7.491444,+353579323726,cctullamore@hotmail.com,Offaly
CIRCLE K EXPRESS MOATE,Athlone Road,Moate,N37 T1W3,IE,53.395549,-7.733577,+353906482434,centramoate@gmail.com,Westmeath
CIRCLE K EXPRESS LAGHEY,Main street,Laghey,F94 HYD7,IE,54.615309,-8.089878,+353749722912,des@rkee.ie,Donegal
NEWLINE OIL COMPANY LTD (A/C 2),Old Dublin Road,Wexford,Y21 X3D7,IE,52.521783,-6.558425,,sales@newlineoil.com,Wexford
JUNCTION 20 INITIATIVE LTD,"Junction 20, Dromad",Ravensdale,A91 AYW7,IE,54.096758,-6.363290,+353429371349,Info@junction20.ie,Louth
CIRCLE K EXPRESS LIFFORD LETTERKENNY RD,Letterkenny Road,Lifford,F93 RKW6,IE,54.833529,-7.487499,+353749141888,austin1960@eircom.net,Donegal
THE GANDON INN TRUCKSTOP,Emo,Portlaoise,R32,IE,53.092352,-7.179380,+353578626622,daybreak@gandoninn.com,Laois
CULLAHILL TRUCKSTOP,.,Cullohill,R32 TFR9,IE,52.817186,-7.476880,+353578737334,berginpaschal@eircom.net,Laois
OBAMA PLAZA TRUCKSTOP,"Junction 23, M7",Moneygall,E53 F342,IE,52.884748,-7.944918,+35391774100,SparMoneygall@supermacs.ie,Tipperary
CIRCLE K EXPRESS O'SULLIVAN'S CLARINA,Ballybrown,Clarina,V94 PTD2,IE,52.632506,-8.730756,+35361353864,centraclarina@dsb.ie,Limerick
CIRCLE K EXPRESS KILCULLEN,Kilcullen,Co Kildare,R56 HN60,IE,53.138720,-6.738293,+35345871771,cathy@naasoil.ie,Kildare
CIRCLE K EXPRESS KINGSCOURT,Station Road,Kingscourt,A82 TX88,IE,53.905525,-6.803052,+353429698745,LondisKingscourtMMC@hotmail.com,Meath
CIRCLE K EXPRESS BEAL NA BLATH,Crookstown,Co Cork,P14 HV27,IE,51.821800,-8.856490,+353217436904,damien@dmretail.ie,Cork
CIRCLE K EXPRESS PARK RÍ KELLS,Cavan Road,Kells,A82 E7F3,IE,53.731464,-6.888953,+353469271123,info@parkri.ie,Meath
"CIRCLE K EXPRESS O'SULLIVAN'S, DOON",Monastery Road,Doon,V94 X8N6,IE,52.604339,-8.244744,+35361380016,2028-doon-store@centra.ie,Limerick
CIRCLE K EXPRESS BALLYLIFFEN,Ballyliffen,Ballyliffen,F93 EKK7,IE,55.274338,-7.399475,+353749376471,ballyliffen@maplegroup.ie,Donegal
CORRIB OIL - TUAM ROAD IPT,Tuam Road,Co Galway,H91 X5PW,IE,53.291783,-9.020564,,dmctigue@corriboil.com,Galway
CIRCLE K EXPRESS SLANE,Chapel Street,Slane,C15 EP22,IE,53.713727,-6.536308,+353419824555,davidjamessmyth@gmail.com,Meath
GLEN FUELS BALLYHALE,Kiltorcan Business Park,Ballyhale,R95 WF86,IE,52.468048,-7.199672,,nicholas.nolan@glenfuels.com,Kilkenny
CIRCLE K EXPRESS CASTLETROY,Dublin Road,Castletroy,V94 KR6W,IE,52.664997,-8.581572,+35361331933,geraldine@singlandmotors.ie,Limerick
CIRCLE K EXPRESS ENNISTYMON,N85 Ennis Road,Ennistymon,V95 EH59,IE,52.938244,-9.289056,+353657071021,lindaokeeffe@yahoo.co.uk,Clare
CIRCLE K EXPRESS RHODE,Main Street,Rhode,R35 D2K1,IE,53.350227,-7.198907,+353469737916,ronnie55k@outlook.com,Offaly
CIRCLEK EXPRESS BELMULLET,Bridge Road,Belmullet,F26 A5D2,IE,54.226129,-9.990370,+3539781233,geraghtysgarage@gmail.com,Mayo
CIRCLE K EXPRESS STAHOLMOG,Staholmog,Carlanstown,A82 V261,IE,53.775418,-6.795200,+353469246954,jarim.limited@gmail.com,Meath
CIRCLE K EXPRESS DUNMORAN,Moybridge,Emyvale,H18 EN84,IE,54.392950,-6.973610,+3534786088,dunmoranstation@gmail.com,Monaghan
CORRIB OIL - BALLINAGH AUTO MOTORS C/C,Cavan Road,Ballinagh,H12 DK10,IE,53.933250,-7.408090,+353091751311,edalton@corriboil.com,Cavan
CIRCLE K EXPRESS BARSTOWN,The Hatchet Inn,Barstown,A86 NY13,IE,53.451578,-6.595928,,r_msvc@yahoo.com,Meath
CIRCLE K EXPRESS ABBEYDORNEY,Tralee Road,Abbeydorney,V92 CY20,IE,52.346028,-9.687520,+353667135138,30377@circlekeurope.com,Kerry
CIRCLE K EXPRESS BALLYBAY,St. Patricks Street,Ballybay,A75 YR12,IE,54.139383,-6.907939,,r_msvc@yahoo.com,Monaghan
CIRCLE K EXPRESS CHARLEVILLE,Limerick Road,Charleville,P56 HY53,IE,52.360557,-8.682347,+3536321112,873-charleville-store@centra.ie,Cork
SHUTTINGTON HOLDINGS LTD TUAM OPT,Abbeytrinity Road,Tuam,H54,IE,53.513944,-8.856985,,avgarvey@corriboil.com,Galway
CIRCLE K EXPRESS GORT R LOUGHREA,Gort Road,Loughrea,H62 H728,IE,53.198800,-8.575570,+35391841790,mccormackefs@gmail.com,Galway
CIRCLEK EXPRESS UMRICAM BUNCRANA,Umricam,Buncrana,F93 PD9D,IE,55.160400,-7.423100,+353749322033,unricamfillingstation1@gmail.com,Donegal
CORRIB OIL - CALTRA,Ballinasloe,Galway,H53 PX61,IE,53.435539,-8.437550,+353872524456,VDOONAN@CORRIBOIL.COM,Galway
CIRCLE K EXPRESS WESTPORT OPT,Castlebar Road,Westport,F28 FP76,IE,53.435539,-8.437550,+353872524456,AGarvey2@corriboil.com,Mayo
CIRCLE K EXPRESS BRACKERNAGH OPT,Brackernagh,Brackernagh,H53 V4H0,IE,53.324829,-8.237213,+353872524456,AGarvey2@corriboil.com,Galway
CIRCLE K EXPRESS PREMIER LIMERICK,Ennis Road,Limerick,V94 PAV9,IE,52.666471,-8.642338,+35361451800,caseysennisroad@drohanknox.ie,Limerick
CORRIB OIL CO LTD CARRICK OPT,"Station Rd, Cortober",Carrick On Shannon,N41 A215,IE,53.938640,-8.107920,+35391751311,vdoonan@corriboil.com,Leitrim
CORRIB OIL GRIFFINS CROSS,Blackwater,Clare,V94 RKT0,IE,52.700790,-8.601558,+35391751311,vdoonan@corriboil.com,Limerick
CIRCLE K EXPRESS CARRICK ON SUIR,Clonmel Road,Carrick on Suir,E32 FC78,IE,52.348700,-7.423500,+35351641004,info@autopower.ie,Tipperary
CIRCLE K EXPRESS BALLINROBE OPT,Neale Road,Ballinrobe,F31 Y009,IE,53.616515,-9.222965,+353872524456,AGarvey2@corriboil.com,Mayo
CIRCLE K EXPRESS BALLINAMORE OPT,Ardrum,Ballinamore,N41  FA36,IE,54.040677,-7.831310,+353872524456,avgarvey@corriboil.com,Leitrim
CIRCLE K BALLYBODEN,Ballyboden Road,Rathfarnham,D16 A2V9,IE,53.284435,-6.295185,+353858013673,30600@circlekeurope.com,Dublin
CIRCLE K GLASNEVIN,Finglas Road,Glasnevin,D11 WD9H,IE,53.371220,-6.280821,+353858014179,30601@circlekeurope.com,Dublin
CIRCLE K NEWLANDS,Fonthill Road South,Clondalkin,D22 N9R3,IE,53.314165,-6.393867,+353858013328,30602@circlekeurope.com,Dublin
CIRCLE K COVE,Dunmore Road,Waterford,X91 A52P,IE,52.248639,-7.087914,+353858013530,30604@circlekeurope.com,Waterford
CIRCLE K ELM PARK,Merrion Rd,Merrion,D04 Y8V0,IE,53.318269,-6.210878,+353858014208,30605@circlekeurope.com,Dublin
CIRCLE K MANOR,Manor Street,Waterford,X91 ADP9,IE,52.253170,-7.115279,+353858013460,30606@circlekeurope.com,Waterford
CIRCLE K BLESSINGTON ROAD,Blessington Rd,Tallaght,D24 RVX7,IE,53.274486,-6.410408,+353858013648,30607@circlekeurope.com,Dublin
CIRCLE K KILLARNEY,Park Rd,Killarney,V93 X40Y,IE,52.060225,-9.498340,+353858013457,30608@circlekeurope.com,Kerry
CIRCLE K OMNI SC,"Omni Park Shopping Centre, Swords Road",Santry,D09 Y6K4,IE,53.393305,-6.246878,+353858013323,30609@circlekeurope.com,Dublin
CIRCLE K DONAGHMEDE SHOPPING CENTRE,Donaghmede Shopping Centre,Donaghmede,D13 H2K2,IE,53.395763,-6.161525,+353858013520,30610@circlekeurope.com,Dublin
CIRCLE K RATHFARNHAM SHOPPING CENTRE,Butterfield Avenue,Rathfarnham,D14 W4C9,IE,53.295311,-6.298685,+353858013453,30611@circlekeurope.com,Dublin
CIRCLE K DOCK RD,Dock Rd,Shannonbridge,V94 C59A,IE,52.658168,-8.640047,+353858013521,30612@circlekeurope.com,Limerick
CIRCLE K BOHERMORE,Bohermore,Galway,H91 PR80,IE,53.282200,-9.038420,+353858013638,30614@circlekeurope.com,Galway
CIRCLE K FRANKFIELD,Kinsale Road,Cork,T12 Y1YY,IE,51.871929,-8.470100,+353858014191,30615@circlekeurope.com,Cork
CIRCLE K TEMPLEVILLE,Templeville Road,Templeogue,D6W KT50,IE,53.304395,-6.314022,+353857483372,30616@circlekeurope.com,Dublin
CIRCLE K KILL SOUTH,Naas Road,Kill,W91 TP38,IE,53.253426,-6.568887,+353858048252,30617@circlekeurope.com,Kildare
CIRCLE K GREENLANE,Green Lane,Rathnapish,R93 X6Y7,IE,52.839981,-6.918928,+353858014169,30618@circlekeurope.com,Carlow
CIRCLE K TULLAMORE,Arden Road,Tullamore,R35 R7V0,IE,53.291342,-7.496768,+353858013818,30619@circlekeurope.com,Offaly
CIRCLE K PORTLAOISE,Abbeyleix road,Portlaoise,R32 FR5P,IE,53.032570,-7.302304,+353858013455,30620@circlekeurope.com,Laois
CIRCLE K NEWCASTLE,Newcastle Road,Galway,H91 YKF3,IE,53.281860,-9.065096,+353858013436,30621@circlekeurope.com,Galway
CIRCLE K BALLINCOLLIG,West end,Ballincollig,P31 KP48,IE,51.887878,-8.594773,+353858013674,30622@circlekeurope.com,Cork
CIRCLE K ATHLONE,Brideswell,Athlone,N37 N2T6,IE,53.420860,-7.926545,+353858014268,30623@circlekeurope.com,Westmeath
CIRCLE K CAHERDAVIN,Caherdavin,Caherdavin,V94 TX8Y,IE,52.671763,-8.665297,+353858013616,30624@circlekeurope.com,Limerick
CIRCLE K MAYPARK,5 Malahide Rd,Beaumont,D05 H6R3,IE,53.376122,-6.218017,+353858013464,30627@circlekeurope.com,Dublin
CIRCLE K GLENVIEW,Tallaght Bypass Road,Tallaght,D24 XYY0,IE,53.286943,-6.345659,+353858014190,30628@circlekeurope.com,Dublin
CIRCLE K SHANNON,Tullyvarraga,Shannon,V14 K201,IE,52.712644,-8.875314,+353857483780,30629@circlekeurope.com,Clare
CIRCLE K BISHOPSTOWN,"Ardrostig, Bandon Road",Bishoptown,T12 AYF8,IE,51.872788,-8.523501,+353858013650,30630@circlekeurope.com,Cork
CIRCLE K BALLINA,Foxford Road,Ballina,F26 F2N5,IE,54.096200,-9.165070,+353858014733,30631@circlekeurope.com,Mayo
CIRCLE K KILNAMANAGH,Maybury Road Tallaght,Tallaght,D24 W82H,IE,53.297914,-6.363377,+353858013746,30632@circlekeurope.com,Dublin
CIRCLE K KENNELSFORT,Kennelsfort Rd,Johnstown,D20 X567,IE,53.349685,-6.377587,+353858014629,30633@circlekeurope.com,Dublin
CIRCLE K KINNEGAD,"R148, Rossan",Kinnegad,N91 F2VA,IE,53.451233,-7.093971,+353858013750,30634@circlekeurope.com,Westmeath
CIRCLE K AUTOBAHN,89 Glasnevin Ave,Ballymun,D11 TFN0,IE,53.390006,-6.272403,+353858014192,30635@circlekeurope.com,Dublin
CIRCLE K APOLLO,14 Dundrum Rd,Dundrum,D14 Y0E1,IE,53.294701,-6.246390,+353858048537,30637@circlekeurope.com,Dublin
CIRCLE K WESTVIEW,Lissenhall,Swords,K67 N8Y1,IE,53.486955,-6.198046,+353858013828,30638@circlekeurope.com,Dublin
CIRCLE K ROXBORO,Roxboro Road,Limerick,V94 WFX2,IE,52.648830,-8.618004,+353857483631,30639@circlekeurope.com,Limerick
CIRCLE K PARKVIEW,"Main St, Haylands",Blessington,W91 EV99,IE,53.172894,-6.530119,+353858013321,30640@circlekeurope.com,Kildare
CIRCLE K QUAYSIDE,The Quay,New Ross,Y34 N400,IE,52.391735,-6.949466,+353858013454,30641@circlekeurope.com,Wexford
CIRCLE K CASTLECOMER ROAD,Castlecomer Rd,Bleach Green,R95 EA3C,IE,52.666291,-7.252361,+353858013574,30642@circlekeurope.com,Kilkenny
CIRCLE K ABBEYLEIX,Durrow Road,Abbelyeix,R32 TYN0,IE,52.908339,-7.352189,+353858043060,30643@circlekeurope.com,Laois
CIRCLE K FOXHALL,Howth Road,Raheny,D05 E6K5,IE,53.380289,-6.160938,+353858014193,30644@circlekeurope.com,Dublin
CIRCLE K CASTLEKNOCK,Castleknock Road,Castleknock,D15 HHK3,IE,53.372987,-6.361914,+353858013572,30645@circlekeurope.com,Dublin
CIRCLE K KILCOLGAN,Killeely More,Kilcolgan,H91 VP1H,IE,53.208698,-8.868650,+353858014732,30647@circlekeurope.com,Galway
CIRCLE K CARTRON HILL,Bundoran Rd,Ballytivnan,F91 HH2Y,IE,54.280341,-8.472538,+353858013601,30648@circlekeurope.com,Sligo
CIRCLE K BRAY,Dublin Road,Bray,A98 P9X2,IE,53.210011,-6.116018,+353858013637,30649@circlekeurope.com,Wicklow
CIRCLE K THURLES,Kickham Street,Thurles,E41 F9W9,IE,52.680377,-7.805488,+353858013368,30650@circlekeurope.com,Tipperary
CIRCLE K NAVAN,Proudstown Road,Navan,C15 F2DH,IE,53.663072,-6.680254,+353858013442,30652@circlekeurope.com,Meath
CIRCLE K KILMACANOGUE,"N11 Southbound, Kilmacanogue",Kilmacanogue,A98 D6Y4,IE,53.169740,-6.135617,+353857483368,30653@circlekeurope.com,Wicklow
CIRCLE K BELGARD,Old Belgard Road,Tallaght,D24 XF6T,IE,53.298030,-6.372006,+353858013652,30654@circlekeurope.com,Dublin
CIRCLE K FINGLAS,North Road,Finglas,D11 R9TY,IE,53.399429,-6.307138,+353858014199,30655@circlekeurope.com,Dublin
CIRCLE K CABRA,146 Cabra Rd,Dublin,D07 XY8E,IE,53.361263,-6.291195,+353858013619,30656@circlekeurope.com,Dublin
CIRCLE K CLONEE,Bracetown,Clonee,D15 W9YX,IE,53.431155,-6.461174,+353858014225,30657@circlekeurope.com,Dublin
CIRCLE K TUAM,Galway Rd,Tuam,H54 YK54,IE,53.510400,-8.865380,+353858013817,30658@circlekeurope.com,Galway
CIRCLE K MIDLETON,Cork Road,Midleton,P25 KV76,IE,51.914315,-8.184201,+353858013458,30659@circlekeurope.com,Cork
CIRCLE K NUTGROVE,Nutgrove Way,Rathfarnham,D14 Y0T0,IE,53.290721,-6.268595,+353858013327,30660@circlekeurope.com,Dublin
CIRCLE K THE SQUARE,The Square,Tallaght,D24 X54A,IE,53.285311,-6.374969,+353857483398,30661@circlekeurope.com,Dublin
CIRCLE K TAYLOR'S LANE,Taylor's Lane,Rathfarnham,D16 N9C2,IE,53.281550,-6.289579,+353858013360,30662@circlekeurope.com,Dublin
CIRCLE K GREENHILLS ROAD,Greenhills Road,Tallaght,D24 N5YD,IE,53.296101,-6.354150,+353858014172,30663@circlekeurope.com,Dublin
CIRCLE K ROCHESTOWN AVE,Rochestown Avenue,Dun Laoghaire,A96 R2R9,IE,53.270508,-6.142076,+353857483630,30664@circlekeurope.com,Dublin
CIRCLE K HARTSTOWN,Hartstown Road,Hartstown,D15 YP3F,IE,53.392860,-6.418946,+353858014631,30665@circlekeurope.com,Dublin
CIRCLE K TIVOLI,Tivoli,Cork,T23 D9PF,IE,51.903126,-8.428673,+353858013365,30666@circlekeurope.com,Cork
CIRCLE K TRALEE,Rathass,Tralee,V92 H292,IE,52.265035,-9.678661,+353858013789,30667@circlekeurope.com,Kerry
CIRCLE K BALLYMUN,Ballymun Road,Santry,D09 W1K6,IE,53.403221,-6.264650,+353858013672,30668@circlekeurope.com,Dublin
CIRCLE K SWORDS,"Miltonsfields, Dublin Road",Swords,K67 R8C7,IE,53.453422,-6.224141,+353857483361,30670@circlekeurope.com,Dublin
CIRCLE K KILTERNAN,Enniskerry Road,Kilternan,D18 H9X9,IE,53.235653,-6.192657,+353858013748,30671@circlekeurope.com,Dublin
CIRCLE K DOUGLAS,East Douglas Street,Douglas,T12 K8NR,IE,51.878010,-8.436309,+353858013518,30672@circlekeurope.com,Cork
CIRCLE K DONNYBROOK,Donnybrook Road,Dublin,D04 K3T8,IE,53.320488,-6.234107,+353858013519,30673@circlekeurope.com,Dublin
CIRCLE K THE WARD,"Broughan, The Ward",Dunsoghly,D11 C3WC,IE,53.426858,-6.329049,+353858013373,30675@circlekeurope.com,Dublin
CIRCLE K FENIT ROAD,Mounthawk,Tralee,V92 R6XC,IE,52.283595,-9.726984,+353858014202,30676@circlekeurope.com,Kerry
CIRCLE K DALKEY,3 Ulverton Road,Dalkey,A96 A4N8,IE,53.278825,-6.107144,+353858013522,30677@circlekeurope.com,Dublin
CIRCLE K LUCAN,Lucan Road,Lucan,K78 R6T3,IE,53.356568,-6.447940,+353858013797,30678@circlekeurope.com,Dublin
CIRCLE K TANEY,"Topaz Building, Taney Road",Mountanville,D14 W0H2,IE,53.292749,-6.230447,+353857483363,30680@circlekeurope.com,Dublin
CIRCLE K MULHUDDART,Navan Rd,Mulhuddart,D15 X2CT,IE,53.402200,-6.396876,+353858013443,30681@circlekeurope.com,Dublin
CIRCLE K LAKEVIEW,"Lakeview Service Station, Lakeview",Midleton,P25 N407,IE,51.905163,-8.167377,+353858013709,30682@circlekeurope.com,Cork
CIRCLE K WATERFORD RD,Waterford Road,Kilkenny,R95 WVX9,IE,52.640800,-7.248640,+353858013823,30685@circlekeurope.com,Kilkenny
CIRCLE K PARK,Castlecomer Rd,Bleach Green,R95 X5DT,IE,52.660919,-7.249822,+353858013322,30686@circlekeurope.com,Kilkenny
CIRCLE K DUNBOYNE,Summerhill Road,Dunboyne,A86 T046,IE,53.420057,-6.476476,+353858013512,30687@circlekeurope.com,Meath
CIRCLE K POLEFIELD,"Polefield Service Station, Commons Road",Cork,T23 W0XW,IE,51.916222,-8.474085,+353858013320,30689@circlekeurope.com,Cork
CIRCLE K ENNIS,"College View, Limerick Road",Ennis,V95 YEY5,IE,52.830874,-8.979335,+353858014204,30691@circlekeurope.com,Clare
CIRCLE K CAVAN,"Dublin Rd, Cavan",Cavan,H12 K6C9,IE,53.984808,-7.329075,+353858013570,30692@circlekeurope.com,Cavan
CIRCLE K COOLFORE,Coolfore,Ashbourne,A84 KP90,IE,53.552989,-6.435858,+353858014215,30694@circlekeurope.com,Meath
CIRCLE K DUBLIN PORT,"Dublin Port Company Service Station, Pro",Dublin Port,D03 W0Y8,IE,53.353907,-6.213970,+353858013513,30695@circlekeurope.com,Dublin
CIRCLE K CITYWEST,"Brownsbarn Drive, Citywest Business Camp",Dublin,D24 N40K,IE,53.295102,-6.430928,+353858014226,30696@circlekeurope.com,Dublin
CIRCLE K NEW MALLOW ROAD,Commons Road,Blackpool,T23 FRCO,IE,51.920155,-8.482479,+353858013438,30697@circlekeurope.com,Cork
CIRCLE K CORBALLY,Corbally Rd,Limerick,V94 VPN8,IE,52.670555,-8.616432,+353858014264,30698@circlekeurope.com,Limerick
CIRCLE K EXPRESS TULLOW ROAD CARLOW,Tullow Rd,Carlow,R93 F7X3,IE,52.832007,-6.909305,+353599137675,kieranyore@centra.ie,Carlow
CIRCLE K N21 NEWCASTLEWEST,Cullinagh,Newcastlewest,V42 AD72,IE,52.444509,-9.073094,+353858013434,30700@circlekeurope.com,Limerick
CIRCLE K GRANGE,Main Street,Grange,F91 E6DX,IE,54.390032,-8.528252,,30701@circlekeurope.com,Sligo
CIRCLE K CARRIGALINE,Cork Road,Carrigaline,P43 FH79,IE,51.819940,-8.391860,+353214852500,shop@cogans.ie,Cork
CIRCLE K  CASTLEISLAND,Tralee Road,Castleisland,V92 THP5,IE,52.231899,-9.468976,+353667142522,Tracy.Long@circlekeurope.com,Kerry
CIRCLE K  RATOATH,Fairyhouse Rd,Ratoath,A85 FX02,IE,53.488972,-6.471612,+35318256282,30713@circlekeurope.com,Meath
CIRCLE K GARRYSPILLANE HINCHYS,Garryspillane,KNOCKLONG,V35 V677,IE,52.411556,-8.378583,+3536258900,circlek@hinchys.ie,Limerick
CIRCLE K CARRICK ON SUIR,Clonmel Road,Carrick on Suir,E32 FC78,IE,52.348646,-7.423504,+35351641004,info@autopower.ie,Tipperary
CIRCLE K BALLYSHANNON,Cloghore,Ballyshannon,F94 D68F,IE,54.477123,-8.096818,+353719852555,terry@tjhughes.ie,Donegal
CIRCLE K ACHILL ISLAND,Cashel,Achill,F28 Y0H9,IE,53.952631,-9.971150,+3539847242,lavelleservicestation@gmail.com,Mayo
CIRCLE K ARTANE,Malahide Road,Artane,D05 K7P4,IE,53.381814,-6.208201,+353858048389,30810@circlekeurope.com,Dublin
CIRCLE K ASHTOWN,15 Navan Road,Dublin,D15 K3VW,IE,53.377970,-6.350977,+353858048357,30811@circlekeurope.com,Dublin
CIRCLE K BALROTHERY,Tallaght By Pass,Tymon South,D24 PD7E,IE,53.289268,-6.336090,+353858013718,30812@circlekeurope.com,Dublin
CIRCLE K KILL NORTH,Kill North,Kill,W91 XF97,IE,53.248316,-6.596103,+353858014694,30814@circlekeurope.com,Kildare
CIRCLE K BEECHWOOD,Dublin Road,Bray,A98 EK25,IE,53.212454,-6.118698,+353858013785,30815@circlekeurope.com,Wicklow
CIRCLE K BELMONT,Sandford Road,Ranelagh,D06 W2C0,IE,53.319983,-6.243708,+353858013786,30816@circlekeurope.com,Dublin
CIRCLE K BOYNE,Dublin Road,Drogheda,A92 N24D,IE,53.713011,-6.339240,+353858013791,30817@circlekeurope.com,Louth
CIRCLE K NINTH LOCK,"Ninth Lock Service Station, 2 Ninth Lock",Clondalkin,D22 E6R2,IE,53.329606,-6.397821,+353858013349,30818@circlekeurope.com,Dublin
CIRCLE K CLONTARF (BULL),232 Clontarf Road,Clontarf,D03 EH72,IE,53.358505,-6.191467,+353858013796,30819@circlekeurope.com,Dublin
CIRCLE K MAYNOOTH,Straffan Road,Maynooth,W23 V489,IE,53.370250,-6.590200,+353858014637,30820@circlekeurope.com,Kildare
CIRCLE K DEERPARK,Dublin Road,Deerpark,R93 D6D5,IE,52.845953,-6.910993,+353858014616,30821@circlekeurope.com,Carlow
CIRCLE K EGLINGTON N11,Bray Road,Cabinteely,D18 Y9E4,IE,53.255134,-6.144338,+353858014731,30822@circlekeurope.com,Dublin
CIRCLE K STILLORGAN ROAD,"Greygates, Stillorgan Road",Mount Merrion,A94 H3K4,IE,53.295386,-6.204121,+353858013767,30823@circlekeurope.com,Dublin
CIRCLE K GROSVENOR,Grosvenor Road,Rathmines,D06 A9P4,IE,53.320983,-6.268050,+353858014727,30824@circlekeurope.com,Dublin
CIRCLE K MALAHIDE,Main Street,Dublin,K36 H006,IE,53.450671,-6.151992,+353858014691,30826@circlekeurope.com,Dublin
CIRCLE K ST PETER'S ROAD,12 Saint Peter's Road,Dublin 12,D12 KP9N,IE,53.310499,-6.325628,+353858013765,30828@circlekeurope.com,Dublin
CIRCLE K MARTELLO,Strand Road,Sandymount,D04 W3C4,IE,53.324073,-6.207105,+353858014673,30829@circlekeurope.com,Dublin
CIRCLE K NEVIN,59-63 Ballymun Road,Ballymun,D09 X6K7,IE,53.381863,-6.266117,+353858013350,30830@circlekeurope.com,Dublin
CIRCLE K PARKWAY EAST,Lucan-By-Pass (Dublin Bound),Dublin,D20 WN96,IE,53.356160,-6.375150,+353858013348,30831@circlekeurope.com,Dublin
CIRCLE K RATHCOOLE,Naas Road,Rathcoole,D24 EAX8,IE,53.283177,-6.468302,+353858013342,30832@circlekeurope.com,Dublin
CIRCLE K RATHDOWN,Bray Road,Greystones,A63 W0X9,IE,53.151797,-6.081331,+353858013340,30833@circlekeurope.com,Wicklow
CIRCLE K RICHMOND,Richmond Road,Ballybough,D03 X2P9,IE,53.362439,-6.242605,+353857483363,30834@circlekeurope.com,Dublin
CIRCLE K ROUND TOWER,Naas Road,Clondalkin,D22 P9T8,IE,53.314873,-6.383962,+353858013726,30835@circlekeurope.com,Dublin
CIRCLE K SUNDRIVE,Lower Kimmage Road,Kimmage,D6W VY44,IE,53.317197,-6.292863,+353858013772,30836@circlekeurope.com,Dublin
CIRCLE K DUNSHAUGHLIN,Ballymurphy,Dunshaughlin,A85 FC78,IE,53.498450,-6.530490,+353858014568,30837@circlekeurope.com,Meath
CIRCLE K THREE ROCK,Grange Road,Rathfarnham,D14 F1W3,IE,53.289515,-6.282979,+353858013774,30838@circlekeurope.com,Dublin
CIRCLE K BEECHMOUNT,Trim Rd,Dillonsland,C15 HW26,IE,53.642823,-6.687705,+353858013784,30839@circlekeurope.com,Meath
CIRCLE K WEST PIER,Crofton Road,Dún Laoghaire,A96 W0H4,IE,53.295557,-6.147706,+353858013783,30841@circlekeurope.com,Dublin
CIRCLE K CENTENARY N11,Old Bray Road,Foxrock,D18 AK58,IE,53.256276,-6.145999,+353858013793,30842@circlekeurope.com,Dublin
CIRCLE K N4 EAST,"N4 East Service Station, Clongowney",Mullingar,N91 HV25,IE,53.521020,-7.289890,+353858014619,30843@circlekeurope.com,Westmeath
CIRCLE K N4 WEST,"N4 West Service Station, Clongowney",Mullingar,N91 PFY9,IE,53.519320,-7.289080,+353858014618,30844@circlekeurope.com,Westmeath
CIRCLE K ROCKFIELD,"N11 Northbound, Kilmacanogue",Kilmacanogue,A98 R9K5,IE,53.168970,-6.136344,+353858013725,30845@circlekeurope.com,Wicklow
CIRCLE K PARKWAY WEST,"The Hill, Lucan Road Old",Palmerstown,D20 CY82,IE,53.353010,-6.363795,+353858013345,30847@circlekeurope.com,Dublin
CIRCLE K MELLIFONT,"North Road Service Station, North Road",Drogheda,A92 D2FE,IE,53.723610,-6.363501,+353858014621,30848@circlekeurope.com,Louth
CIRCLE K THOMOND,Thomondgate,Limerick,V94 T25X,IE,52.671692,-8.635733,+353858013369,30851@circlekeurope.com,Limerick
CIRCLE K CRYSTAL,Cork Road,Waterford,X91 RY9K,IE,52.245260,-7.129630,+353858013524,30852@circlekeurope.com,Waterford
CIRCLE K WESTWAY,Kylemore Road,Ballyfermot,D12 XE6N,IE,53.327945,-6.343649,+353858013829,30853@circlekeurope.com,Dublin
CIRCLE K FORTFIELD,6 Fortfield Road,Kimmage,D6W Y271,IE,53.310663,-6.302524,+353858014175,30854@circlekeurope.com,Dublin
CIRCLE K BEAUMONT,9 Beaumont Road,Whitehall,D09 F3P4,IE,53.385445,-6.233752,+353858013654,30855@circlekeurope.com,Dublin
CIRCLE K KILMAINHAM,647_657 S Circular Rd,Kilmainham,D08 V20D,IE,53.341346,-6.307934,+353858013819,30856@circlekeurope.com,Dublin
CIRCLE K ASHBOURNE,Ashbourne Town,Meath,A84 DC63,IE,53.518798,-6.409088,+353858013568,30857@circlekeurope.com,Meath
CIRCLE K CORK AIRPORT,Cork Airport,Cork,T12 W5FD,IE,51.848352,-8.480992,+353858014265,30858@circlekeurope.com,Cork
CIRCLE K EASTGATE,Main Street,Ballincollig,P31 HX54,IE,51.888265,-8.585408,+353858014209,30859@circlekeurope.com,Cork
CIRCLE K MITCHELSTOWN,Cork Road,Mitchelstown,P67 XP22,IE,52.262460,-8.271136,+353858013446,30860@circlekeurope.com,Cork
CIRCLE K COOLMINE,"15 Porters Rd, Coolmine Industrial Estat",Dublin,D15 P97R,IE,53.385307,-6.396481,+353858014234,30861@circlekeurope.com,Dublin
CIRCLE K BRENNANSTOWN,Hollybrook,Ballywaltrim,A98 K0E3,IE,53.182367,-6.132462,+353858013634,30862@circlekeurope.com,Wicklow
CIRCLE K KILCOOLE,Main Street,Kilcoole,A63 YE00,IE,53.110323,-6.065485,+353858048233,30863@circlekeurope.com,Wicklow
CIRCLE K GRANGE CASTLE,Nangor Road,Clondalkin,D22 V9T7,IE,53.318317,-6.437635,+353858014173,30864@circlekeurope.com,Dublin
CIRCLE K WICKLOW,Dublin Road,Wicklow,A67 XK44,IE,52.986220,-6.059006,+353858013830,30865@circlekeurope.com,Wicklow
CIRCLE K CASHEL,"Junction 8, M8 Cashel, Waller's-Lot",Cashel,E25 R722,IE,52.509404,-7.872305,+353858013593,30867@circlekeurope.com,Tipperary
CIRCLE K MONAGHAN,Coolshannagh,Monaghan,H18 T282,IE,54.263600,-6.959410,+353858013445,30868@circlekeurope.com,Monaghan
CIRCLE K ATHY,Dublin Road,Athy,R14 T254,IE,52.994339,-6.967306,+353858013514,30869@circlekeurope.com,Kildare
CIRCLE K BALLYSIMON,Ballysimon Rd,Limerick,V94 V1KF,IE,52.652661,-8.593600,+353858013665,30870@circlekeurope.com,Limerick
CIRCLE K LOUGH FORBES,Battery Road,Longford,N39 X9C5,IE,53.738753,-7.801677,+353858014693,30871@circlekeurope.com,Longford
CIRCLE K DUBLIN AIRPORT,Collinstown Road,Swords,K67 N4C8,IE,53.428688,-6.234655,+353858013516,30872@circlekeurope.com,Dublin
CIRCLE K CRANLEY,Cranley Centre,Dublin 22,D22 E3X6,IE,53.321457,-6.357867,+353858013525,30880@circlekeurope.com,Dublin
CIRCLE K BALLACOLLA,"M8 Junction 3, Tintore",Ballacolla,R32 X8H7,IE,52.866494,-7.480754,+353858014623,30882@circlekeurope.com,Laois
CIRCLE K CLONSHAUGH,Clonshaugh Road,Swords,K67 NH00,IE,53.412465,-6.216488,+353858014213,30883@circlekeurope.com,Dublin
CIRCLE K CLONES,Monaghan Rd,Clones,H23 Y866,IE,54.181632,-7.226157,+353858014221,30884@circlekeurope.com,Monaghan
CIRCLE K GOREY MOTORWAY STATION,"M11 Services Area, Ballyellen",Inch,Y25 V8F8,IE,52.751030,-6.203290,+353858014178,30885@circlekeurope.com,Wexford
CIRCLE K M6 ATHLONE,"M6 Service Area, Fossagh, Mount Temple",Moate,N37 N2T0,IE,53.400792,-7.827737,+353858013798,30886@circlekeurope.com,Westmeath
CIRCLE K M9 KILCULLEN,"M9 Service Area, Kilgowan",Kilcullen,R56 T251,IE,53.089000,-6.753795,+353858013802,30887@circlekeurope.com,Kildare
CIRCLE K TRIM,"Trim Retail Park, Navan Road",Trim,C15 C52C,IE,53.562399,-6.767024,+353858013816,30888@circlekeurope.com,Meath
CIRCLE K SAFEWAY,Dublin Road,Arklow,Y14 HK70,IE,52.803034,-6.147974,+353857483632,30889@circlekeurope.com,Wicklow
CIRCLE K CITY AVENUE,"Citywest Road, Citywest Business Campus",Citywest,D24 FD72,IE,53.288056,-6.423723,+353858014231,30890@circlekeurope.com,Dublin
CIRCLE K BANTRY,Newtown,Newtown,P75 EE70,IE,51.691137,-9.442250,+353858013661,30891@circlekeurope.com,Cork
CIRCLE K JUNCTION 5 M9,Junction 5 M9,Rathcrogue,R93 N2X8,IE,52.802665,-6.883146,+353858014630,30892@circlekeurope.com,Carlow
CIRCLE K GALLOWSHILL,Kilrush Roundabout,Waterford,X35 VX06,IE,52.092456,-7.634977,+353858014730,30893@CIRCLEKEUROPE.COM,Waterford
CIRCLE K MACROOM,Coolcower,Macroom,P12 X721,IE,51.891400,-8.937700,+353858013803,30894@circlekeurope.com,Cork
CIRCLE K FERMOY J14 M8,Moorepark West,Fermoy,P61 HP52,IE,52.164120,-8.264648,+353858528936,30895@circlekeurope.com,Cork
CIRCLE K CITYNORTH J7 M1,City North Business Campus,Gormanstown,K32 VR44,IE,53.637671,-6.258343,+353858014263,30896@circlekeurope.com,Dublin
CIRCLE K BRINKHALL (ASHFORD) LTD,Main Street,Ashford,A67 EP60,IE,53.011582,-6.108460,+353858013625,30900@circlekeurope.com,Wicklow
CIRCLE K CARLOW DEPOT - VALE OIL,Tullow Rd,Carlow,R93 AK57,IE,52.832319,-6.909023,,,Carlow
OPT MCANENLY,Moybridge,Emyvale,A81,IE,54.399249,-6.975502,,31633@circlekeurope.com,Monaghan
DONEGAL OIL IPT,Port Road,Letterkenny,F92 HN44,IE,54.952293,-7.725994,,grantw@donegaloil.ie,Donegal
CIRCLE K LOWER O'CONNELL ST,16 / 17 Lower O'Connell Street,Dublin 1,D01 R2R6,IE,53.348762,-6.259343,,31890@circlekeurope.com,Dublin
CIRCLE K WESTMORELAND ST,3 & 4 Ballast House,Dublin 2,D02 XF76,IE,53.346660,-6.259467,,31891@circlekeurope.com,Dublin
CIRCLE K GRAFTON STREET,49 Grafton Street,Dublin 2,D02 KP26,IE,53.340261,-6.260582,,31892@circlekeurope.com,Dublin
CIRCLE K COLLEGE GREEN,4/5 Lower College Green,Dublin 2,D02 TY42,IE,53.344429,-6.261696,,PHIDO@CIRCLEKEUROPE.COM,Dublin
CIRCLE K SANDYFORD,Units 1-3 The Atrium (Ground Floor),Dublin 18,D18 E5Y8,IE,53.276451,-6.208992,,31894@circlekeurope.com,Dublin
CIRCLE K PARKWEST,"Unit B, 24 Oak Road Business Park",Dublin 12,D12 EY18,IE,53.326937,-6.370763,,31896@circlekeurope.com,Dublin
CIRCLE K FONTHILL,Unit 8 Fonthill Retail Park,Dublin 22,D22 V2F7,IE,53.348359,-6.406303,,31897@circlekeurope.com,Dublin
CIRCLE K UPPER O'CONNELL ST,36 Upper O'Connell Street,Dublin 1,D01 A0X8,IE,53.352598,-6.261100,,31898@circlekeurope.com,Dublin
CIRCLE K NASSAU STREET,16 Nassau Street,Dublin 2,D02 YR22,IE,53.343085,-6.258972,,VYTDER@CIRCLEKEUROPE.COM,Dublin
CIRCLE K EXPRESS NUTTS CORNER,"Nutts Corner, Tully Road 11",Crumlin,BT29 4SW,GB,54.641497,-6.155622,+442890825706,airportroadservicestation@btconnect.com,Antrim
CIRCLE K EXPRESS BELFAST ANDERSONTOWN RD,200 Andersonstown Road,Belfast,BT119EB,GB,54.572889,-5.992812,+442890613209,coolpc6@gmail.com,Antrim
CIRCLE K EXPRESS ROSTREVOR,43 Warrenpoint Road,Rostrevor,BT34 3EB,GB,54.099375,-6.206476,+442841738282,ghanfs@btconnect.com,Down
CIRCLE K EXPRESS MOIRA LISBURN ROAD,25 Lisburn Road,Moira,BT67 0JS,GB,54.498402,-6.153326,+442892621305,broomhedge-topaz@btconnect.com,Armagh
CIRCLE K EXPRESS STRABANE,Lifford Road,Strabane,BT82 8EP,GB,54.830634,-7.477043,+442871383139,borderservicestationltd@gmail.com,Tyrone
CIRCLE K EXPRESS LURGAN SILVERWOOD,62 Silverwood Road,Lurgan,BT666LE,GB,54.468034,-6.367000,+442838325342,silverwoodstn@btconnect.com,Armagh
CIRCLE K EXPRESS TRORY,"236 Irvinestown Road, Trory",ENNISKILLEN,BT94 2FE,GB,54.385593,-7.641527,+442866340620,roulstonballinamallard@centra.co.uk,Fermanagh
CIRCLE K EXPRESS LISNASKEA,50 Moorlough Road,Lisnakea,BT92 0DW,GB,54.244482,-7.438839,+442867722038,courtneysgarage@swiftsoft.net,Fermanagh
CIRCLE K EXPRESS LURGAN BANBRIDGE ROAD,"Flush Retail Park, 1A Banbridge Rd",Lurgan,BT66 7EG,GB,54.456114,-6.323856,+442838311330,lurgan@supervalu.co.uk,Armagh
CIRCLE K EXPRESS ENNISKILLEN LETTERBREEN,"351 Sligo Road, Letterbreen",Enniskillen,BT74 9FH,GB,54.309122,-7.733716,+442866341300,ph374143@aol.com,Fermanagh
CIRCLE K EXPRESS CARGAN,204 Glenravel Road,Cargan,BT436RD,GB,54.995625,-6.180107,+442821759927,brian@kearneys.ie,
CIRCLE K EXPRESS ANNALONG,35 Kilkeel Road,Annalong,BT34 4TJ,GB,54.106473,-5.902602,+442843768443,barbicanannalong@gmail.com,Down
CIRCLE K EXPRESS GARVAGHY,232 Omagh Road,Garvaghy,BT722DX,GB,54.488339,-7.134710,+442885568209,susan.cox@btconnect.com,
CIRCLE K EXPRESS ARMAGH KILLYLEA ROAD,1 Killylea Road,ARMAGH,BT60 4AN,GB,54.345863,-6.664290,+442837528128,susan.cox@btconnect.com,Armagh
CIRCLE K EXPRESS LISBURN KNOCKMORE ROAD,97 Knockmore Road,Lisburn,BT28 2TA,GB,54.517698,-6.077843,+442892640997,,Antrim
CIRCLE K EXPRESS CARRICK PRINCE ANDREW,Prince Andrew Way,Carrickfergus,BT38 7TU,GB,54.727628,-5.806052,+442893355551,rabmillen1@yahoo.co.uk,Antrim
CIRCLE K EXPRESS NEWRY BELFAST ROAD,16 Belfast Road,Newry,BT34 1QA,GB,54.187334,-6.335029,+442830262436,niallclarkeoils@btconnect.com,Down
CIRCLE K EXPRESS BALLYMONEY,2 Ballymena Road,Ballymoney,BT53 7AB,GB,55.070713,-6.503646,+442827663500,pgmccool@gmail.com,
CIRCLE K EXPRESS PORTGLENONE,34 Clady Road,Portglenone,BT44 8NG,GB,54.872522,-6.488947,+442825821143,portglenone@centra.co.uk,
CIRCLE K EXPRESS PORTSTEWART,162 Station Road,Portstewart,BT55 7PU,GB,55.182386,-6.696542,+442870832221,portstewart@supervalu.co.uk,Derry
CIRCLE K EXPRESS BELFAST UPR LISBURN RD,243-267 Upper Lisburn Road,Belfast,BT10 0LN,GB,54.557223,-5.991565,+442890430370,jennifer@creightons.co.uk,Antrim
CIRCLE K EXPRESS MAYOBRIDGE,37 Newry Road,Mayobridge,BT342ET,GB,54.178591,-6.239818,+442830851554,info@ohares.shop,Down
CIRCLE K EXPRESS DRUMANESS,121 Drumaness Road,Ballynahinch,BT248RL,GB,54.369580,-5.853943,+442897564312,accounts@ohares.shop,Down
CIRCLE K EXPRESS ARMAGH MOY ROAD,1 Moy Road,Armagh,BT617LY,GB,54.355550,-6.657466,+442837527985,info@okanesarmagh.com,Armagh
CIRCLE K EXPRESS BUSHMILLS,40 Priestland Road,Bushmills,BT578XB,GB,55.196049,-6.534671,+442820731787,jrmorgan@btconnect.com,
CIRCLE K EXPRESS DOWNPATRICK,112 Market Street,Downpatrick,BT306LZ,GB,54.325085,-5.719289,+442844615459,gflynn56@hotmail.com,Down
CIRCLE K EXPRESS BANBRIDGE,23A Church Street,Banbridge,BT32 4AD,GB,54.353606,-6.268150,+442840662241,banbridge@centra.co.uk,Down
CIRCLE K EXPRESS SION MILLS,105 - 107 Melmount Road,Sion mills,BT82 9PY,GB,54.790799,-7.474107,+442881658344,mckennasionmills@maceni.co.uk,Tyrone
CIRCLE K EXPRESS WARRENPOINT,61A Upper Dromore Road,Warrenpoint,BT343PN,GB,54.113000,-6.260470,+442841752739,accounts@ohares.shop,Down
CIRCLE K EXPRESS OMAGH,82 Derry Road,Omagh,BT785ED,GB,54.610678,-7.323483,+442882251015,32050@circlekeurope.com,Tyrone
CIRCLE K EXPRESS BELFAST BEERSBRIDGE RD,323 Beersbridge Road,Belfast,BT55DS,GB,54.592530,-5.889533,+442890453612,rathenfuel@gmail.com,Derry
CIRCLE K EXPRESS BELFAST LANARK WAY,1 Lanark Way,Belfast,BT13 3FT,GB,54.603050,-5.959291,+442890311619,rathenfuel@gmail.com,Antrim
CIRCLE K EXPRESS LURGAN ANTRIM ROAD,60 Antrim Road,Lurgan,BT679BW,GB,54.472074,-6.323596,+442838326512,ronan@ohares.shop,Armagh
CIRCLE K EXPRESS MARKETHILL,31 Keady Street,Markethill,BT60 1PN,GB,54.298253,-6.523703,+442837552799,admin@sdmullan.co.uk,Armagh
CIRCLE K EXPRESS MALLUSK,1 Mayfield Link,Mallusk,BT36 4AW,GB,54.672582,-5.983040,+442890490227,adam.thompson@musgrave.ie,Antrim
CIRCLE K EXPRESS LARNE PORT,Unit 1A,LARNE,BT40 1AX,GB,54.846146,-5.806928,+442828274552,lustylarneport@centra.co.uk,Antrim
CIRCLE K EXPRESS KILKEEL,42 Newry Road,Kilkeel,BT34 4DT,GB,54.066776,-6.014500,+442841763297,larkinkilkeel@maceni.co.uk,Down
CIRCLE K EXPRESS NEWRY GREENBANK,Warrenpoint Road,NEWRY,BT34 2PF,GB,54.165469,-6.333431,+442830260547,declanmurphy@btconnect.com,Down
CIRCLE K EXPRESS LISBURN WHITE MOUNTAIN,19 Mullaghglass Road,LISBURN,BT28 3SN,GB,54.548316,-6.076412,+442892635990,mrpni.apinvoicing@musgrave.ie,Antrim
CIRCLE K EXPRESS LARNE OLD GLENARM ROAD,127 OLD GLENARM ROAD,LARNE,BT40 1NQ,GB,54.856370,-5.815342,+442830260547,office.centralarne@aol.com,Antrim
TJ HUGHES (NI),Loughshore Road,Belleek,BT93 3FU,GB,54.476380,-8.095222,+442868659857,terry@tjhughes.ie,Fermanagh
CIRCLE K EXPRESS NEWTOWNBUTLER,Clones Road,Newtownbutler,BT92 6JP,GB,54.182120,-7.354965,+442867738134,newtownbutler@supervalu.co.uk,Fermanagh
CIRCLE K EXPRESS NEWTOWNABBEY,51 O'Neill Road,NEWTOWNABBEY,BT36 6UN,GB,54.670560,-5.925406,+442890865227,oneillroad@centra.co.uk,Antrim
CIRCLE K EXPRESS FINTONA,2 Tattymoyle Road,Fintona,BT78 2AS,GB,54.495855,-7.320180,+442882841481,fintona@supervalu.co.uk,Tyrone
CIRCLE K EXPRESS CARRICK WOODBURN ROAD,10 Woodburn Road,CARRICKFERGUS,BT38 8HQ,GB,54.718469,-5.820964,+442893361404,carrickfergus@centra.co.uk,Antrim
CIRCLE K EXPRESS NEWCASTLE,82 Dundrum Road,NEWCASTLE,BT33 0LN,GB,54.220348,-5.887183,+442843723945,newcastle@supervalu.co.uk,Down
CIRCLE K EXPRESS MOIRA MAIN STREET,16 Main Street,Moira,BT67 0LE,GB,54.479308,-6.230468,+442892611500,moira@centra.co.uk,Armagh
MUSGRAVE RETAIL PARTNERS NI (HO),1 - 19 Dargan Drive,BELFAST,BT3 9JG,GB,54.627072,-5.912697,+447920845855,graham.patchet@musgrave.ie,
OPT LARNE PORT HGV,Unit 1a Redlands Road,LARNE,BT40 1AX,GB,54.845957,-5.805865,+442828274552,lustylarneport@centra.co.uk,Antrim
MUSGRAVE COMMERCIAL FALCON ROAD,A4 Falcon Road,BELFAST,BT12 6SJ,GB,54.578493,-5.958565,,Jill.Robinson@drinksinc.com,Antrim
CIRCLE K EXPRESS DUNGIVEN,804 Feeny Road,LONDONDERRY,BT47 4TA,GB,54.927279,-6.940941,+442877741804,dungiven@centra.co.uk,Derry
CIRCLE K EXPRESS BELFAST STEWARTSTOWN RD,228 Stewartstown Road,BELFAST,BT17 0LB,GB,54.554068,-6.027530,+442896013130,foxesglen@centra.co.uk,Antrim
CIRCLE K EXPRESS AGHALEE,10 Lurgan Road,Aghalee,BT67 0DD,GB,54.519805,-6.271679,+442892651897,32074@circlekeurope.com,Armagh
CIRCLE K EXPRESS PORTADOWN,139 Garvaghy Road,Portadown,BT62 1EH,GB,54.429003,-6.447960,+442838361540,eamonnwilson@aol.com,Armagh
NEWRY FILLING STATION LIMITED OPT,16 Belfast Road,NEWRY,BT34 1QA,GB,54.187567,-6.336108,,newry@niallclarkeoils.com,Down
CIRCLE K EXPRESS DERVOCK,2 Carncullagh Road,Dervock,BT53 8BD,GB,55.123173,-6.467716,+442827141018,dervock@centra.co.uk,
